City_ID,City,Lat,Lng,Max_Temp,Humidity,Cloudiness,Wind_Speed,Country,Date
0,port mathurin,-19.6833,63.4167,23.4,75,62,9.98,MU,1689748570
1,martapura,-3.4167,114.85,32.05,66,40,3.6,ID,1689748570
2,lebu,-37.6167,-73.65,11.36,96,100,5.96,CL,1689748570
3,port-aux-francais,-49.35,70.2167,2.08,70,100,12.14,TF,1689748570
4,khandyga,62.6667,135.6,23.38,51,96,1.38,RU,1689748570
5,crane,31.3974,-102.3501,29.97,29,6,8.5,US,1689748570
6,pointe-noire,-4.7761,11.8635,23.04,94,75,2.06,CG,1689748571
7,yallahs,17.8748,-76.5624,28.85,87,100,4.68,JM,1689748571
8,avarua,-21.2078,-159.775,22.03,56,20,3.09,CK,1689748571
9,oltinko'l,40.8011,72.1634,41.53,11,0,4.75,UZ,1689748571
10,jose maria morelos,23.3952,-103.8984,17.66,38,7,2.47,MX,1689748571
11,grytviken,-54.2811,-36.5092,-0.19,93,100,4.79,GS,1689748571
12,edinburgh of the seven seas,-37.0676,-12.3116,15.13,92,100,8.81,SH,1689748572
13,margaret river,-33.95,115.0667,12.43,54,96,10.54,AU,1689748572
14,adamstown,-25.066,-130.1015,21.97,81,71,2.8,PN,1689747807
15,wangjing,24.6,94.0333,32.64,52,20,0.9,IN,1689748052
16,ushuaia,-54.8,-68.3,2.81,75,0,2.57,AR,1689748285
17,ostersund,63.1792,14.6357,11.25,35,40,1.54,SE,1689748572
18,albany,42.6001,-73.9662,18.91,97,0,1.94,US,1689748572
19,brisas de zicatela,15.8369,-97.0419,27.07,77,78,2.7,MX,1689748572
20,atafu village,-8.5421,-172.5159,28.74,75,98,7.0,TK,1689748573
21,iqaluit,63.7506,-68.5145,6.85,100,100,1.03,CA,1689748573
22,eyl,7.9803,49.8164,28.84,54,34,13.23,SO,1689748053
23,puerto ayora,-0.7393,-90.3518,25.31,94,35,2.24,EC,1689748053
24,francistown,-21.17,27.5079,12.9,36,0,1.58,BW,1689748053
25,kokoda,-8.8785,147.7407,26.8,72,64,0.17,PG,1689748573
26,susuman,62.7833,148.1667,28.04,27,53,3.72,RU,1689748573
27,longyearbyen,78.2186,15.6401,9.91,71,40,1.54,SJ,1689748573
28,waitangi,-43.9535,-176.5597,12.12,92,16,0.89,NZ,1689748573
29,yellowknife,62.456,-114.3525,18.29,68,100,1.54,CA,1689748574
30,selfoss,63.9331,-20.9971,9.47,69,84,2.62,IS,1689748574
31,apostolove,47.66,33.7137,24.49,36,62,3.61,UA,1689748574
32,portland,45.5234,-122.6762,23.96,53,0,4.12,US,1689748249
33,blackmans bay,-43.0167,147.3167,8.07,75,54,1.99,AU,1689748574
34,klyuchi,52.2667,79.1667,31.94,25,98,3.66,RU,1689748574
35,sitka,57.0531,-135.33,13.94,88,100,5.14,US,1689748575
36,braniewo,54.3797,19.8196,18.47,62,100,5.35,PL,1689748575
37,kodiak,57.79,-152.4072,13.73,88,100,1.54,US,1689748575
38,stanley,54.868,-1.6985,13.49,94,40,2.06,GB,1689748575
39,bethel,41.3712,-73.414,22.17,87,0,1.54,US,1689748575
40,zhuangyuan,37.2975,120.8256,34.46,31,0,1.56,CN,1689748575
41,shahrud,36.4182,54.9763,26.97,38,2,7.87,IR,1689748576
42,bonthe,7.5264,-12.505,23.99,94,100,2.02,SL,1689748576
43,yaritagua,10.08,-69.1261,24.59,98,100,1.18,VE,1689748576
44,indianola,41.3581,-93.5574,19.27,85,14,2.08,US,1689748576
45,coquimbo,-29.9533,-71.3436,13.85,88,75,2.57,CL,1689748288
46,manokwari,-0.8667,134.0833,28.74,76,61,2.17,ID,1689748576
47,kirando,-7.4167,30.6,24.32,44,49,1.42,TZ,1689748576
48,kailua-kona,19.6406,-155.9956,27.98,83,75,5.14,US,1689748577
49,bredasdorp,-34.5322,20.0403,8.81,72,100,2.8,ZA,1689748577
50,darwin,-12.4611,130.8418,31.99,25,0,2.57,AU,1689748493
51,tumayr,25.7039,45.868,40.59,6,0,0.8,SA,1689748577
52,soledad de graciano sanchez,22.2,-100.95,17.9,68,20,2.57,MX,1689748577
53,talnakh,69.4865,88.3972,14.4,55,97,3.53,RU,1689748577
54,atmakur,15.8833,78.5833,24.19,88,100,7.54,IN,1689748577
55,tura,25.5198,90.2201,31.96,68,96,1.59,IN,1689748578
56,invercargill,-46.4,168.35,8.13,95,100,4.01,NZ,1689748578
57,anadyr,64.75,177.4833,20.28,60,0,5.0,RU,1689748578
58,alice springs,-23.7,133.8833,21.75,28,7,3.6,AU,1689748578
59,tlahualilo de zaragoza,26.1167,-103.45,27.98,27,0,4.11,MX,1689748579
60,aykhal,66.0,111.5,22.51,38,84,8.96,RU,1689748579
61,haiku-pauwela,20.9219,-156.3051,25.01,86,75,7.2,US,1689748579
62,georgetown,5.4112,100.3354,26.97,83,20,1.54,MY,1689748362
63,whitehorse,60.7161,-135.0538,14.43,82,75,3.6,CA,1689748446
64,fauske,67.2588,15.3918,14.02,83,98,2.46,NO,1689748579
65,san antonio de pale,-1.4014,5.6325,23.35,88,100,4.61,GQ,1689748579
66,olonkinbyen,70.9221,-8.7187,4.78,92,100,5.61,SJ,1689748580
67,nova vicosa,-17.8919,-39.3719,20.89,88,7,2.22,BR,1689748580
68,santa cruz,-17.8,-63.1667,14.7,67,100,5.66,BO,1689748580
69,kaohsiung,22.6163,120.3133,32.05,89,75,4.63,TW,1689748580
70,salinopolis,-0.6136,-47.3561,24.95,88,46,3.93,BR,1689748580
71,port elizabeth,-33.918,25.5701,11.17,87,40,10.29,ZA,1689748580
72,ilulissat,69.2167,-51.1,6.42,98,100,2.2,GL,1689748581
73,beloyarskiy,63.7119,66.6722,27.04,49,100,3.17,RU,1689748581
74,coahuayana de hidalgo,18.7,-103.6583,26.47,86,83,0.36,MX,1689748581
75,west island,-12.1568,96.8225,26.99,78,75,5.66,CC,1689748581
76,ancud,-41.8697,-73.8203,10.23,97,100,3.72,CL,1689748581
77,boundiali,9.5217,-6.4869,22.38,95,94,1.1,CI,1689748581
78,jamestown,42.097,-79.2353,14.8,91,20,0.0,US,1689748582
79,yinchuan,38.4681,106.2731,34.04,24,0,4.57,CN,1689748347
80,wailua homesteads,22.0669,-159.378,26.44,74,75,10.8,US,1689748582
81,monte caseros,-30.2536,-57.6363,3.32,90,0,3.49,AR,1689748582
82,puerto natales,-51.7236,-72.4875,-2.51,88,100,0.88,CL,1689748344
83,villa gesell,-37.2639,-56.973,2.81,81,97,4.94,AR,1689748582
84,lazaro cardenas,17.9583,-102.2,27.67,82,99,1.25,MX,1689748582
85,bilibino,68.0546,166.4372,23.25,54,98,3.04,RU,1689748336
86,dabhol,17.6,73.1667,24.47,93,100,7.57,IN,1689748583
87,port saint john's,-31.6229,29.5448,16.35,65,100,9.17,ZA,1689748583
88,carlsbad,33.1581,-117.3506,23.8,86,20,2.06,US,1689748330
89,oranjemund,-28.55,16.4333,12.3,72,0,6.73,NA,1689748583
90,laguna,38.421,-121.4238,25.1,60,0,5.66,US,1689748583
91,carnot,4.9409,15.8665,23.76,88,83,1.72,CF,1689748583
92,belogradchik,43.6272,22.6836,27.6,44,49,0.34,BG,1689748584
93,yilan,24.757,121.753,33.92,65,98,2.89,TW,1689748531
94,st. john's,47.5649,-52.7093,21.82,97,100,9.26,CA,1689748385
95,quiberon,47.4841,-3.1196,17.82,85,16,0.45,FR,1689748584
96,vila velha,-20.3297,-40.2925,23.97,85,75,3.09,BR,1689748585
97,uturoa,-16.7333,-151.4333,26.88,73,13,8.23,PF,1689748585
98,mata-utu,-13.2816,-176.1745,27.07,82,100,8.98,WF,1689748585
99,vadso,70.0744,29.7487,15.49,94,100,3.09,NO,1689748586
100,iskateley,67.6803,53.1512,22.23,58,97,2.14,RU,1689748586
101,tazovsky,67.4667,78.7,17.88,66,100,2.3,RU,1689748586
102,aasiaat,68.7098,-52.8699,4.24,99,100,4.07,GL,1689748586
103,port alfred,-33.5906,26.891,13.43,66,10,4.92,ZA,1689748586
104,dunedin,-45.8742,170.5036,9.32,85,100,4.52,NZ,1689748586
105,grantsville,40.5999,-112.4644,26.72,44,100,4.63,US,1689748586
106,howard springs,-12.497,131.047,31.95,26,1,0.89,AU,1689748587
107,yarmouth,41.7057,-70.2286,24.26,96,75,2.57,US,1689748587
108,fale old settlement,-9.3852,-171.2468,28.56,75,79,6.72,TK,1689748587
109,ola,59.5833,151.2833,20.63,59,86,3.29,RU,1689748587
110,opuwo,-18.0607,13.84,15.79,20,0,2.6,NA,1689748587
111,kidal,18.4411,1.4078,32.46,31,100,4.97,ML,1689748587
112,taluksangay,6.9542,122.1839,30.03,74,75,4.12,PH,1689748587
113,namdrik,5.5994,168.1028,27.8,80,98,4.36,MH,1689748588
114,ndende,-2.4008,11.3581,24.07,77,100,1.17,GA,1689748588
115,phalodi,27.1333,72.3667,37.85,39,38,1.17,IN,1689748588
116,solvang,34.5958,-120.1377,18.29,77,0,1.54,US,1689748588
117,nova sintra,14.8667,-24.7167,22.48,77,100,3.95,CV,1689748589
118,udachny,66.4167,112.4,22.41,43,74,9.38,RU,1689748589
119,ladozhskaya,45.3081,39.935,26.09,59,10,6.49,RU,1689748589
120,ribeira grande,38.5167,-28.7,21.22,68,40,4.12,PT,1689748589
121,cabo san lucas,22.8909,-109.9124,30.03,71,3,0.89,MX,1689748589
122,villa emilio carranza,19.9667,-96.6,25.87,84,30,2.29,MX,1689748589
123,plettenberg bay,-34.0527,23.3716,10.99,74,100,7.65,ZA,1689748589
124,nipomo,35.0428,-120.476,17.9,91,100,1.54,US,1689748590
125,canutama,-6.5339,-64.3831,24.28,66,67,1.28,BR,1689748590
126,cadale,2.7603,46.3222,26.73,71,20,9.62,SO,1689748590
127,fernie,49.5,-115.0687,12.11,48,6,1.99,CA,1689748440
128,sandnessjoen,66.0217,12.6316,15.06,63,0,2.57,NO,1689748591
129,alofi,-19.0595,-169.9187,21.94,64,41,6.17,NU,1689748592
130,saint-philippe,-21.3585,55.7679,22.28,78,40,6.35,RE,1689748592
131,esuk oron,4.8029,8.2534,25.25,88,98,1.28,NG,1689748592
132,morehead city,34.7229,-76.726,29.0,89,20,5.14,US,1689748386
133,la passe,45.5549,-0.8967,18.88,71,0,1.68,FR,1689748592
134,pokhara,28.2333,83.9833,31.26,54,20,2.27,NP,1689748592
135,el jadid,33.2549,-8.506,23.16,86,11,6.08,MA,1689748592
136,college,64.8569,-147.8028,22.99,56,75,1.54,US,1689748593
137,guerrero negro,27.9769,-114.0611,19.33,86,0,5.21,MX,1689748593
138,daru,-9.0763,143.2092,26.05,76,63,5.18,PG,1689748593
139,belyy yar,53.6039,91.3903,26.94,44,0,2.0,RU,1689748593
140,rocha,-34.4833,-54.3333,2.94,89,26,0.51,UY,1689748593
141,lompoc,34.6391,-120.4579,14.77,95,100,2.06,US,1689748593
142,port douglas,-16.4833,145.4667,23.37,73,16,5.72,AU,1689748593
143,isafjordur,66.0755,-23.124,9.71,78,98,0.8,IS,1689748594
144,roma,43.2128,-75.4557,18.18,95,100,0.0,US,1689748528
145,pocito,-31.6833,-68.5833,8.4,55,100,2.84,AR,1689748594
146,taroa,8.7058,171.2275,28.53,81,100,7.76,MH,1689748594
147,thompson,55.7435,-97.8558,11.09,87,20,1.03,CA,1689748594
148,yekaterinovka,52.0508,44.3451,19.45,62,10,8.03,RU,1689748594
149,nadi,-17.8,177.4167,25.0,69,40,2.57,FJ,1689748548
150,rongelap,11.1635,166.8941,28.59,78,27,5.58,MH,1689748594
151,port lincoln,-34.7333,135.8667,17.47,52,100,7.83,AU,1689748577
152,santiago de surco,-12.15,-77.0167,20.71,82,75,4.63,PE,1689748595
153,kristiansund,63.1115,7.732,12.03,76,75,1.54,NO,1689748595
154,petropavlovsk-kamchatsky,53.0452,158.6483,22.33,56,20,6.0,RU,1689748595
155,shiyan,32.6475,110.7781,29.43,65,100,2.38,CN,1689748595
156,fort bragg,35.139,-79.006,26.91,85,0,4.12,US,1689748528
157,pampa,35.5362,-100.9599,28.65,30,48,3.84,US,1689748383
158,praia,14.9215,-23.5087,25.3,78,75,5.14,CV,1689748595
159,enewetak,11.3474,162.3373,28.83,77,80,6.09,MH,1689748596
160,marlton,39.8912,-74.9218,23.83,90,0,0.0,US,1689748456
161,kingston,17.997,-76.7936,28.53,81,20,5.14,JM,1689748281
162,buala,-8.145,159.5921,27.05,85,96,3.15,SB,1689748596
163,sur,22.5667,59.5289,38.0,39,15,2.07,OM,1689748596
164,masterton,-40.9597,175.6575,12.71,77,12,5.09,NZ,1689748446
165,lorengau,-2.0226,147.2712,28.85,68,36,2.34,PG,1689748597
166,saint-joseph,-21.3667,55.6167,23.59,70,16,6.52,RE,1689748597
167,vlore,40.4667,19.4897,32.78,41,0,1.96,AL,1689748597
168,malvan,16.0667,73.4667,25.33,92,100,9.83,IN,1689748597
169,karasburg,-28.0167,18.75,7.03,87,39,4.0,NA,1689748597
170,tommot,58.9564,126.2925,16.31,98,100,2.3,RU,1689748597
171,keflavik,64.0049,-22.5624,10.24,87,0,4.63,IS,1689748597
172,la ronge,55.1001,-105.2842,13.14,88,40,0.51,CA,1689748597
173,cidade velha,14.9167,-23.6167,25.26,78,75,5.14,CV,1689748597
174,katsuura,35.1333,140.3,27.93,80,3,11.52,JP,1689748598
175,yemetsk,63.4721,41.7941,25.63,38,100,2.65,RU,1689748598
176,carnarvon,-24.8667,113.6333,18.31,57,100,10.21,AU,1689748598
177,mejit,10.2753,170.8646,28.38,82,97,8.22,MH,1689748598
178,ixtapa,20.7,-105.2,24.63,92,94,1.47,MX,1689748598
179,mount pearl,47.5166,-52.7813,21.36,96,100,9.26,CA,1689748598
180,kavieng,-2.5744,150.7967,27.43,78,100,2.67,PG,1689748598
181,sitia,35.2,26.0986,27.29,63,0,8.2,GR,1689748599
182,immingham,53.6124,-0.2222,15.13,60,100,2.06,GB,1689748599
183,illizi,26.4833,8.4667,26.89,22,0,5.74,DZ,1689748599
184,soroti,1.7146,33.6111,23.38,62,68,2.09,UG,1689748599
185,tiksi,71.6872,128.8694,14.0,56,90,7.88,RU,1689748599
186,magadan,59.5667,150.8,20.74,55,94,2.04,RU,1689748599
187,mount isa,-20.7333,139.5,25.87,38,100,2.57,AU,1689748599
188,deqen,29.9618,90.7188,15.05,64,98,1.64,CN,1689748600
189,rundu,-17.9333,19.7667,15.16,28,0,2.38,NA,1689748600
190,yuzhno-kurilsk,44.0306,145.8556,16.05,88,82,2.42,RU,1689748600
191,kayangel,8.0823,134.7173,27.49,83,100,6.27,PW,1689748600
192,puerto armuelles,8.2833,-82.8667,26.01,89,16,2.18,PA,1689748379
193,vorgashor,67.5833,63.95,24.82,47,60,3.77,RU,1689748600
194,port shepstone,-30.7414,30.455,17.6,76,100,11.67,ZA,1689748600
195,brokopondo,4.75,-55.1667,24.24,89,6,3.56,SR,1689748601
196,askoy,60.4092,5.226,11.68,50,75,2.57,NO,1689748601
197,mount gambier,-37.8333,140.7667,10.36,61,99,3.88,AU,1689748601
198,hawaiian paradise park,19.5933,-154.9731,24.46,99,100,3.09,US,1689748601
199,qaqortoq,60.7167,-46.0333,7.61,99,100,2.53,GL,1689748601
200,moyamba,8.1667,-12.4333,22.9,98,100,0.7,SL,1689748601
201,kutum,14.2,24.6667,29.94,33,36,2.82,SD,1689748601
202,zheleznogorsk-ilimskiy,56.5768,104.1217,24.48,30,6,1.43,RU,1689748602
203,papatowai,-46.5619,169.4708,8.21,88,100,4.69,NZ,1689748602
204,constantia,44.1833,28.65,29.38,65,1,4.93,RO,1689748602
205,bassar,9.25,0.7833,22.2,97,100,1.65,TG,1689748602
206,saipan,15.1355,145.701,31.39,100,20,4.63,MP,1689748602
207,tromso,69.6496,18.957,11.01,87,75,4.12,NO,1689748602
208,aliade,7.2964,8.487,24.75,90,56,3.28,NG,1689748602
209,tazacorte,28.629,-17.9293,22.54,61,75,4.63,ES,1689748602
210,paramonga,-10.6667,-77.8333,18.83,87,83,4.1,PE,1689748603
211,cavelossim,15.1726,73.9419,27.99,86,100,8.17,IN,1689748603
212,chonchi,-42.6128,-73.8092,10.56,98,100,1.3,CL,1689748603
213,newnham,-41.3833,147.1333,8.53,53,11,1.54,AU,1689748603
214,rio grande,-32.035,-52.0986,1.08,69,5,3.43,BR,1689748603
215,bacabal,-4.2917,-44.7917,21.38,89,85,0.75,BR,1689748603
216,berezovyy,51.6667,135.7,35.06,26,97,2.76,RU,1689748603
217,ingeniero jacobacci,-41.3427,-69.5448,2.4,78,100,1.07,AR,1689748603
218,ahvaz,31.3203,48.6693,42.97,14,0,1.03,IR,1689748498
219,hamilton,39.1834,-84.5333,22.16,95,75,1.54,US,1689748588
220,pasuquin,18.3328,120.6177,30.97,74,40,3.09,PH,1689748604
221,cockburn town,21.4612,-71.1419,28.5,83,17,6.88,TC,1689748462
222,codrington,-38.2667,141.9667,9.58,70,17,4.46,AU,1689748604
223,gharo,24.7424,67.5856,33.12,63,100,7.95,PK,1689748604
224,charters towers,-20.1,146.2667,24.87,33,19,6.14,AU,1689748604
225,kita,13.0349,-9.4895,24.6,84,15,1.1,ML,1689748604
226,kerikeri,-35.2268,173.9474,11.06,87,100,1.23,NZ,1689748470
227,harstad,68.799,16.5293,12.66,100,100,5.36,NO,1689748604
228,usinsk,65.9939,57.5281,27.04,38,13,3.72,RU,1689748605
229,richards bay,-28.783,32.0377,21.49,79,34,7.69,ZA,1689748605
230,santa rosa de copan,14.7667,-88.7833,17.3,100,100,0.62,HN,1689748605
231,michalovce,48.7543,21.9195,22.29,66,93,0.59,SK,1689748605
232,kabalo,-6.05,26.9167,27.95,30,65,4.09,CD,1689748605
233,pizarro,4.9533,-77.366,26.79,91,53,1.16,CO,1689748605
234,quelimane,-17.8786,36.8883,18.97,94,75,1.54,MZ,1689748605
235,kiama,-34.6833,150.8667,14.58,50,84,3.77,AU,1689748605
236,kapa'a,22.0752,-159.319,27.18,73,75,10.8,US,1689748606
237,palmer,42.1584,-72.3287,22.23,85,100,1.54,US,1689748321
238,nanning,22.8167,108.3167,29.25,72,90,4.67,CN,1689748588
239,geraldton,-28.7667,114.6,16.23,51,75,7.72,AU,1689748606
240,coron,11.9986,120.2043,30.29,64,100,3.0,PH,1689748606
241,timizart,36.8,4.2667,36.91,14,0,2.79,DZ,1689748606
242,crieff,56.3727,-3.8389,12.82,84,54,1.05,GB,1689748606
243,lagunillas,10.1301,-71.2595,27.08,84,26,3.39,VE,1689748606
244,hermanus,-34.4187,19.2345,8.22,60,100,5.69,ZA,1689748606
245,inarajan village,13.2736,144.7484,30.22,85,99,4.94,GU,1689748607
246,nacala,-14.5428,40.6728,25.67,66,94,4.1,MZ,1689748567
247,canasgordas,6.7499,-76.0254,16.42,91,100,1.79,CO,1689748607
248,cabedelo,-6.9811,-34.8339,23.37,84,28,5.72,BR,1689748607
249,chistyye bory,58.3647,41.6278,17.0,98,100,2.97,RU,1689748607
250,monguno,12.6786,13.6079,31.08,46,100,6.55,NG,1689748607
251,san luis de la loma,17.2706,-100.8939,27.01,80,20,1.54,MX,1689748608
252,bucerias,20.75,-105.3333,25.6,89,94,2.36,MX,1689748397
253,al bawiti,28.3492,28.8659,31.87,27,0,1.99,EG,1689748608
254,del rio,29.3627,-100.8968,33.06,35,0,5.66,US,1689748472
255,elhovo,42.1667,26.5667,28.42,51,0,2.86,BG,1689748608
256,humaita,-7.5061,-63.0208,24.72,55,91,1.14,BR,1689748608
257,merta,26.65,74.0333,34.37,50,100,1.37,IN,1689748608
258,seeb,23.6703,58.1891,35.05,71,67,3.09,OM,1689748608
259,merizo village,13.2658,144.6691,29.99,85,100,5.08,GU,1689748609
260,fonte boa,-2.4959,-66.2662,22.38,97,21,1.0,BR,1689748609
261,butembo,0.15,29.2833,23.92,39,100,0.44,CD,1689748609
262,ataq,14.5377,46.8319,31.54,33,31,4.2,YE,1689748609
263,limbiate,45.5968,9.129,27.47,80,29,0.45,IT,1689748609
264,yigo village,13.5361,144.8886,29.3,77,40,4.12,GU,1689748609
265,caleta de carquin,-11.0925,-77.6267,18.57,85,68,4.52,PE,1689748609
266,aral,40.5156,81.2636,40.12,10,27,3.74,CN,1689748610
267,singkil,-7.9855,111.4161,28.12,57,0,5.35,ID,1689748610
268,mount zion,39.7714,-88.8742,20.38,100,0,0.0,US,1689748610
269,colonia,50.9333,6.95,18.82,72,0,1.54,DE,1689748610
270,sorsk,54.0033,90.2467,23.4,48,71,3.01,RU,1689748397
271,dmitrovsk-orlovskiy,52.505,35.1464,18.42,57,6,7.35,RU,1689748610
272,tadine,-21.55,167.8833,20.35,87,100,2.58,NC,1689748610
273,tamandare,-8.7597,-35.1047,23.28,88,20,2.71,BR,1689748610
274,mamuju,-2.6748,118.8885,29.66,71,11,2.27,ID,1689748611
275,laojunmiao,39.8333,97.7333,24.19,31,44,5.46,CN,1689748611
276,inirida,3.8653,-67.9239,22.45,99,100,0.55,CO,1689748612
277,girardot city,4.2987,-74.8047,23.74,60,83,0.76,CO,1689748612
278,hakui,36.8833,136.7833,26.24,87,48,3.52,JP,1689748612
279,new norfolk,-42.7826,147.0587,8.73,72,15,1.02,AU,1689748612
280,san patricio,28.017,-97.5169,28.81,87,2,5.67,US,1689748612
281,rudsar,37.1376,50.288,22.99,80,99,0.99,IR,1689748612
282,gangolli,13.65,74.6667,26.83,84,100,7.87,IN,1689748612
283,nogliki,51.8333,143.1667,14.15,85,72,5.35,RU,1689748613
284,hithadhoo,-0.6,73.0833,27.77,77,29,4.18,MV,1689748613
285,porto novo,6.4965,2.6036,25.9,88,100,2.78,BJ,1689748613
286,mazagao,-0.115,-51.2894,26.03,98,25,1.26,BR,1689748613
287,conceicao da barra,-18.5933,-39.7322,19.18,96,25,1.2,BR,1689748613
288,rumphi,-11.0186,33.8575,22.29,40,49,2.85,MW,1689748613
289,arraial do cabo,-22.9661,-42.0278,20.67,91,100,7.83,BR,1689748613
290,abaete,-19.16,-45.4458,21.63,50,100,1.59,BR,1689748613
291,papao,-17.75,-149.55,26.82,82,25,10.68,PF,1689748614
292,burang,30.25,81.1667,18.76,51,46,1.75,CN,1689748614
293,puerto santa,-8.9906,-78.6456,20.36,84,98,3.75,PE,1689748614
294,vanimo,-2.6741,141.3028,28.41,78,98,3.5,PG,1689748614
295,smara,26.7384,-11.6719,23.42,70,11,4.08,EH,1689748614
296,den burg,53.0542,4.7972,16.99,85,100,3.6,NL,1689748614
297,punta arenas,-53.15,-70.9167,1.32,87,100,1.31,CL,1689748614
298,lagoa,39.05,-27.9833,19.87,69,90,0.96,PT,1689748615
299,batticaloa,7.7102,81.6924,34.59,44,65,5.83,LK,1689748615
300,minas de marcona,-15.2119,-75.1103,11.74,88,62,4.18,PE,1689748615
301,az zuwaytinah,30.9522,20.1202,28.3,65,0,6.7,LY,1689748615
302,salekhard,66.53,66.6019,26.85,41,32,4.18,RU,1689748615
303,antofagasta,-23.65,-70.4,15.6,75,35,0.86,CL,1689748463
304,narvik,68.4384,17.4272,12.99,96,100,1.4,NO,1689748615
305,yanykurgan,43.915,67.2481,32.36,21,100,4.84,KZ,1689748615
306,santa elena de uairen,4.6167,-61.1333,18.49,92,10,0.89,VE,1689748616
307,el calafate,-50.3408,-72.2768,-2.73,52,100,1.12,AR,1689748616
308,dudinka,69.4058,86.1778,15.96,47,52,3.99,RU,1689748616
309,gadzhiyevo,69.2551,33.3362,16.57,72,100,1.92,RU,1689748616
310,east london,-33.0153,27.9116,13.52,58,0,8.75,ZA,1689748616
311,erenhot,43.6475,111.9767,35.75,14,27,3.79,CN,1689748616
312,lihue,21.9789,-159.3672,26.77,74,75,10.8,US,1689748616
313,olonets,60.9847,32.9698,18.94,62,100,3.53,RU,1689748616
314,pisco,-13.7,-76.2167,15.57,82,16,1.03,PE,1689748616
315,nemuro,43.3236,145.575,15.26,92,100,2.33,JP,1689748617
316,maksatikha,57.797,35.8825,13.59,92,100,6.01,RU,1689748617
317,kapuskasing,49.4169,-82.4331,10.05,93,20,1.54,CA,1689748617
318,mohr,54.3528,9.7167,14.08,92,75,2.06,DE,1689748617
319,vilyuchinsk,52.9306,158.4028,23.15,79,97,2.73,RU,1689748617
320,menemen,38.6075,27.0694,31.65,36,0,3.09,TR,1689748617
321,polyarnyy,69.1989,33.4478,16.6,71,100,1.6,RU,1689748617
322,mandera,3.9366,41.867,29.58,43,32,9.8,KE,1689748619
323,mutoko,-17.397,32.2268,16.11,37,0,0.24,ZW,1689748619
324,karratha,-20.7377,116.8463,27.79,25,2,6.01,AU,1689748619
325,awjilah,29.1081,21.2869,30.0,35,0,7.07,LY,1689748619
326,nizhneangarsk,55.7833,109.55,15.13,54,96,1.76,RU,1689748619
327,khorramabad,33.4878,48.3558,30.79,11,0,0.0,IR,1689748619
328,derzhavinsk,51.1,66.3167,26.13,37,88,7.53,KZ,1689748619
329,metro,-5.1131,105.3067,28.72,71,26,3.95,ID,1689748619
330,banda aceh,5.5577,95.3222,27.39,78,100,6.66,ID,1689748620
331,pangkalanbuun,-2.6833,111.6167,27.86,84,75,2.65,ID,1689748620
332,nampula,-15.1165,39.2666,18.97,94,75,3.09,MZ,1689748620
333,melekeok village,7.4957,134.6367,31.31,70,75,6.69,PW,1689748620
334,coos bay,43.3665,-124.2179,15.52,94,40,8.75,US,1689748088
335,mili,6.0815,171.735,28.62,75,90,5.49,MH,1689748620
336,zelenoborskiy,66.845,32.3622,16.3,72,100,1.22,RU,1689748620
337,artesia,33.8658,-118.0831,27.38,78,0,3.09,US,1689748620
338,al muwayh,22.4333,41.7583,39.66,7,89,7.85,SA,1689748620
339,starotitarovskaya,45.2136,37.1439,27.26,66,81,3.55,RU,1689748621
340,broome,42.2506,-75.833,18.14,97,64,0.43,US,1689748621
341,puerto lempira,15.2667,-83.7667,26.28,87,100,4.38,HN,1689748621
342,corner brook,48.9667,-57.9484,22.09,95,98,1.73,CA,1689748462
343,san sebastian de la gomera,28.0916,-17.1133,23.2,78,20,1.03,ES,1689748623
344,sinjai,-5.1241,120.253,28.04,69,5,3.62,ID,1689748623
345,jaguarari,-10.2639,-40.1958,15.22,99,48,2.87,BR,1689748623
346,codajas,-3.8367,-62.0569,23.19,70,80,0.95,BR,1689748624
347,hasaki,35.7333,140.8333,31.22,82,27,11.66,JP,1689748624
348,badger,64.8,-147.5333,22.95,63,100,1.54,US,1689748624
349,luanda,-8.8368,13.2343,22.0,83,75,0.51,AO,1689748400
350,ceres,37.5949,-120.9577,27.18,48,0,4.12,US,1689748624
351,port augusta,-32.5,137.7667,17.66,37,5,7.09,AU,1689748625
352,mpika,-11.8343,31.4529,18.4,46,79,4.18,ZM,1689748625
353,prince george,53.9166,-122.753,18.68,63,100,1.54,CA,1689748509
354,puerto maldonado,-12.6,-69.1833,23.02,67,100,2.11,PE,1689748625
355,aioun,16.6614,-9.6149,30.93,51,28,5.05,MR,1689748625
356,boyolangu,-8.1181,111.8935,26.91,64,21,6.7,ID,1689748625
357,praia da vitoria,38.7333,-27.0667,18.75,88,40,0.78,PT,1689748626
358,trairi,-3.2778,-39.2689,24.31,84,64,4.69,BR,1689748626
359,roswell,34.0232,-84.3616,25.31,76,0,3.6,US,1689748585
360,lido di ostia,41.7321,12.2765,30.8,61,0,4.12,IT,1689748626
361,gore,-46.1028,168.9436,7.01,97,100,0.07,NZ,1689748626
362,hirara,24.8,125.2833,30.15,79,75,3.6,JP,1689748627
363,sumenep,-7.0167,113.8667,30.08,54,0,7.34,ID,1689748627
364,aromashevo,56.8602,68.6375,23.2,64,100,4.04,RU,1689748627
365,pachino,36.7186,15.0907,30.72,50,0,3.54,IT,1689748627
366,champerico,14.3,-91.9167,26.25,82,72,2.39,GT,1689748627
367,lethbridge,49.7,-112.8186,14.81,71,0,3.09,CA,1689748477
368,show low,34.2542,-110.0298,23.97,57,0,2.57,US,1689748627
369,mugia,43.1041,-9.2179,17.17,81,9,5.5,ES,1689748628
370,xunchang,28.4543,104.715,23.42,93,100,1.1,CN,1689748628
371,weno,7.4515,151.8468,29.97,74,100,1.54,FM,1689748628
372,caxias,38.7031,-9.2767,19.97,84,40,6.17,PT,1689748628
373,hadibu,12.65,54.0333,26.48,72,43,12.34,YE,1689748628
374,vera cruz,-12.6333,-41.0333,14.76,94,10,0.48,BR,1689748629
375,walvis bay,-22.9575,14.5053,10.53,100,0,3.6,NA,1689748629
376,bereznik,62.8551,42.7072,26.21,43,100,3.08,RU,1689748629
377,visby,57.6409,18.296,16.13,77,75,5.66,SE,1689748629
378,mindelo,16.8901,-24.9804,24.75,73,40,4.12,CV,1689748629
379,zaigrayevo,51.8336,108.2703,25.58,20,7,3.63,RU,1689748630
380,sola,-13.8833,167.55,21.37,100,100,0.0,VU,1689748630
381,tolanaro,-25.0319,46.9987,24.04,69,20,3.09,MG,1689748630
382,bardai,11.65,7.2333,24.2,70,98,6.0,NG,1689748630
383,abalak,58.1286,68.5944,23.91,63,96,4.39,RU,1689748630
384,castillos,-34.1667,-53.8333,4.38,80,14,1.08,UY,1689748630
385,chadron,42.8294,-102.9999,21.82,78,20,9.26,US,1689748630
386,karasu,41.071,30.7854,24.76,61,0,1.6,TR,1689748631
387,flying fish cove,-10.4217,105.6791,25.82,78,75,8.23,CX,1689748631
388,cidreira,-30.1811,-50.2056,10.09,70,6,2.52,BR,1689748631
389,taoudenni,22.6783,-3.9836,34.46,21,6,4.28,ML,1689748631
390,tarinkot,32.6268,65.8733,37.56,8,5,1.42,AF,1689748631
391,prien,30.1819,-93.2738,26.99,93,0,2.06,US,1689748632
392,howrah,22.5892,88.3103,33.0,70,40,5.14,IN,1689748096
393,glendive,47.1053,-104.7125,18.79,45,0,5.14,US,1689748632
394,belmonte,-15.8631,-38.8828,21.19,83,12,0.89,BR,1689748632
395,puerto leguizamo,-0.1934,-74.7819,21.08,99,22,0.77,CO,1689748632
396,patterson,37.4716,-121.1297,26.97,39,11,1.1,US,1689748632
397,chibougamau,49.9168,-74.3659,13.79,94,100,1.85,CA,1689748632
398,timimoun,29.2639,0.231,30.21,14,0,6.69,DZ,1689748632
399,dedougou,12.4667,-3.4667,28.04,60,99,3.33,BF,1689748529
400,san mariano,7.5,126.0,25.88,88,100,0.58,PH,1689748633
401,itaunja,27.0833,80.9167,33.99,56,81,3.13,IN,1689748633
402,prado,-17.3411,-39.2208,20.42,90,8,2.06,BR,1689748633
403,carolina,18.3808,-65.9574,28.94,89,40,5.66,PR,1689748510
404,dhuri,30.3667,75.8667,35.56,50,54,2.94,IN,1689748633
405,saarijarvi,62.7049,25.254,19.41,53,17,2.84,FI,1689748633
406,novyy urgal,51.0736,132.5642,33.3,29,0,1.03,RU,1689748634
407,santa terezinha,-29.9002,-50.0904,10.19,73,25,2.38,BR,1689748634
408,hoemul-li,41.4339,129.67,24.74,76,3,3.17,KP,1689748634
409,ust-nera,64.5667,143.2,24.74,32,26,2.06,RU,1689748634
410,bel ombre,-4.6167,55.4167,28.91,70,40,3.6,SC,1689748634
411,artigas,-30.4,-56.4667,3.42,91,0,4.68,UY,1689748634
412,oroqen zizhiqi,50.5667,123.7167,28.67,47,100,2.17,CN,1689748636
413,labasa,-16.4167,179.3833,23.28,88,100,4.83,FJ,1689748636
414,tortoli,39.9256,9.6572,33.9,31,0,3.6,IT,1689748636
415,nantucket,41.2835,-70.0995,25.03,100,100,1.54,US,1689748545
416,obo,5.3998,26.4869,23.43,87,100,2.27,CF,1689748636
417,karakocan,38.9558,40.0386,27.7,28,0,2.09,TR,1689748636
418,mirny,62.5353,113.9611,18.87,64,100,1.8,RU,1689748636
419,sampang,-7.1872,113.2394,29.24,51,0,2.25,ID,1689748637
420,aleg,17.0481,-13.9209,30.94,52,35,3.07,MR,1689748637
421,bac lieu,9.285,105.7244,25.71,90,100,7.97,VN,1689748637
422,santa maria del oro,25.9333,-105.3667,23.82,34,5,0.58,MX,1689748637
423,hohhot,40.8106,111.6522,32.16,27,0,3.0,CN,1689748637
424,happy valley-goose bay,53.3168,-60.3315,19.17,68,75,2.57,CA,1689748637
425,tsetserleg,47.475,101.4542,17.72,72,100,4.26,MN,1689748637
426,veselynove,47.3567,31.2349,24.93,38,2,1.46,UA,1689748637
427,machico,32.7,-16.7667,22.23,79,40,4.12,PT,1689748638
428,afaahiti,-17.75,-149.2833,25.93,80,9,9.4,PF,1689748638
429,dolores,-36.3132,-57.6792,2.24,82,100,3.01,AR,1689748638
430,bamboo flat,11.7,92.7167,31.05,70,40,7.72,IN,1689748638
431,port macquarie,-31.4333,152.9167,14.44,53,0,6.55,AU,1689748455
432,gewane,10.1664,40.6453,33.69,32,80,8.84,ET,1689748638
433,playa vicente,17.8333,-95.8167,22.68,96,25,1.63,MX,1689748638
434,bouake,7.6895,-5.0218,23.06,100,75,3.09,CI,1689748639
435,broken hill,-31.95,141.4333,14.34,40,0,4.07,AU,1689748639
436,natal,-5.795,-35.2094,24.36,100,75,2.06,BR,1689748639
437,buka,40.8108,69.1986,39.13,17,0,3.18,UZ,1689748639
438,menongue,-14.6585,17.691,15.72,35,0,1.43,AO,1689748639
439,maintirano,-18.0667,44.0167,27.15,54,18,1.36,MG,1689748639
440,huadian,42.9633,126.7478,29.07,59,0,3.04,CN,1689748640
441,brandon,27.9378,-82.2859,26.95,92,0,1.54,US,1689748640
442,san ignacio rio muerto,27.4167,-110.2333,30.83,69,8,3.34,MX,1689748641
443,honefoss,60.168,10.2565,14.84,52,67,1.54,NO,1689748599
444,itoman,26.1247,127.6694,32.21,79,40,5.66,JP,1689748641
445,cururupu,-1.8283,-44.8683,23.45,92,92,0.73,BR,1689748641
446,nguigmi,14.2495,13.1092,31.69,46,100,7.76,NE,1689748642
447,besisahar,28.2313,84.3761,31.7,59,19,3.06,NP,1689748642
448,surab,28.4914,66.2585,33.61,16,12,0.86,PK,1689748642
449,t'q'ibuli,42.3512,42.9987,19.51,46,85,2.16,GE,1689748642
450,port blair,11.6667,92.75,31.02,70,40,7.72,IN,1689748642
451,warmbad,-28.45,18.7333,8.45,80,4,4.06,NA,1689748643
452,kununurra,-15.7667,128.7333,30.99,25,56,3.09,AU,1689748643
453,ambovombe,-25.1667,46.0833,24.28,51,0,3.42,MG,1689748643
454,llanes,43.4198,-4.7549,19.78,82,78,1.55,ES,1689748643
455,necochea,-38.5473,-58.7368,3.78,64,100,6.34,AR,1689748643
456,uribia,11.7139,-72.266,26.31,79,91,7.06,CO,1689748643
457,preobrazheniye,42.9019,133.9064,21.16,83,59,1.98,RU,1689748644
458,hammerfest,70.6634,23.6821,9.25,93,75,5.14,NO,1689748644
459,kruisfontein,-34.0033,24.7314,9.94,69,37,10.03,ZA,1689748644
460,waingapu,-9.6567,120.2641,28.9,53,11,7.34,ID,1689748644
461,lichinga,-13.3128,35.2406,16.05,72,40,5.66,MZ,1689748644
462,norderney,53.7,7.15,16.66,80,88,2.49,DE,1689748644
463,freeport,40.6576,-73.5832,24.42,85,0,4.12,US,1689748644
464,indramayu,-6.3264,108.32,30.04,56,5,6.4,ID,1689748645
465,berdigestyakh,62.0989,126.6992,19.72,41,100,2.92,RU,1689748645
466,zhezqazghan,47.7833,67.7667,28.32,24,0,7.0,KZ,1689748645
467,nar'yan-mar,67.6713,53.087,22.47,57,96,2.2,RU,1689748645
468,utrik,11.2278,169.8474,28.06,82,70,8.18,MH,1689748106
469,cotija de la paz,19.8167,-102.6833,16.58,78,92,1.3,MX,1689748645
470,tokar,18.4254,37.729,38.57,28,34,13.55,SD,1689748645
471,okha,53.5739,142.9478,16.41,79,95,4.29,RU,1689748646
472,raja,8.4596,25.678,23.31,90,100,3.1,SS,1689748646
473,kosh-agach,50.0,88.6667,25.47,25,1,0.44,RU,1689748646
474,sarangani,5.4033,125.4636,28.67,71,100,7.74,PH,1689748646
475,malango,-2.9627,119.9001,24.15,87,82,1.46,ID,1689748646
476,tshabong,-26.05,22.45,13.49,31,0,4.05,BW,1689748646
477,kirakira,-10.4544,161.9205,26.78,88,97,3.36,SB,1689748646
478,zheleznogorsk,52.331,35.3711,18.48,58,5,7.29,RU,1689748647
479,acapulco de juarez,16.8634,-99.8901,27.9,83,40,2.57,MX,1689748636
480,talcahuano,-36.7167,-73.1167,10.82,54,100,2.06,CL,1689748647
481,sisimiut,66.9395,-53.6735,8.93,99,100,0.81,GL,1689748647
482,vila franca do campo,37.7167,-25.4333,20.23,85,100,1.23,PT,1689748108
483,taltal,-25.4,-70.4833,17.65,58,48,1.94,CL,1689748392
484,bukoba,-1.3317,31.8122,23.99,57,20,5.14,TZ,1689748648
485,tanout,14.9709,8.8879,31.0,47,97,8.03,NE,1689748648
486,touros,-5.1989,-35.4608,23.02,91,45,4.97,BR,1689748648
487,egilsstadir,65.2653,-14.3948,6.95,76,40,3.09,IS,1689748648
488,dalian,38.9122,121.6022,32.96,43,0,5.0,CN,1689748648
489,phulbani,20.4667,84.2333,29.02,78,99,2.5,IN,1689748648
490,quinte west,44.1834,-77.5662,15.74,77,0,1.03,CA,1689748378
491,hami,42.8,93.45,37.49,13,17,5.71,CN,1689748649
492,istgah-e rah ahan-e garmsar,35.2346,52.3094,32.52,30,3,2.59,IR,1689748649
493,kozloduy,43.7833,23.7333,29.77,38,4,0.9,BG,1689748649
494,bougouni,11.417,-7.479,24.01,90,29,1.92,ML,1689748649
495,naze,28.3667,129.4833,27.51,76,12,5.89,JP,1689748649
496,fortuna,40.5982,-124.1573,14.96,93,100,0.45,US,1689748650
497,darnah,32.767,22.6367,27.62,69,0,8.62,LY,1689748650
498,tucuma,-0.1833,-50.05,24.01,92,2,2.38,BR,1689748650
499,dinguiraye,11.3,-10.7167,21.46,95,30,0.84,GN,1689748650
500,scarborough,54.2797,-0.4044,14.32,92,100,2.17,GB,1689748615
501,leava,-14.3,-178.1667,27.17,80,76,11.26,WF,1689748650
502,gambiran satu,-8.3939,114.1464,26.45,63,19,3.84,ID,1689748650
503,fort st. john,56.2499,-120.8529,14.94,72,75,3.09,CA,1689748651
504,korla,41.7597,86.1469,37.09,14,0,5.02,CN,1689748651
505,tidjikja,18.5564,-11.4271,29.9,47,55,2.74,MR,1689748111
506,sosnovo-ozerskoye,52.5249,111.5418,23.04,29,8,3.81,RU,1689748651
507,abepura,-2.6333,140.5833,30.45,62,20,3.09,ID,1689748651
508,kharkhorin,47.1975,102.8238,19.23,64,100,3.23,MN,1689748651
509,bhiwani,28.7833,76.1333,36.66,45,60,3.64,IN,1689748651
510,sisophon,13.5859,102.9737,32.97,50,97,8.4,KH,1689748652
511,moapa valley,36.5805,-114.4703,34.93,19,0,1.93,US,1689748652
512,bikenibeu village,1.3673,173.1241,28.98,79,75,5.14,KI,1689748652
513,pastavy,55.1168,26.8326,18.04,55,7,5.99,BY,1689748652
514,cobram,-35.9167,145.65,8.99,69,1,1.29,AU,1689748652
515,wayne,42.2506,-83.2833,19.17,88,0,1.54,US,1689748652
516,road town,18.4167,-64.6167,29.05,75,73,9.96,VG,1689748502
517,sao gabriel da cachoeira,-0.1303,-67.0892,22.19,98,100,0.3,BR,1689748653
518,koesan,36.8108,127.7947,30.55,59,11,1.85,KR,1689748653
519,bulayevo,54.9056,70.4439,22.19,67,99,3.27,KZ,1689748653
520,tvoroyri,61.5556,-6.8111,9.15,80,100,11.51,FO,1689748653
521,mauganj,24.6833,81.8833,34.45,46,100,5.98,IN,1689748653
522,jackson,42.4165,-122.8345,25.93,29,0,0.0,US,1689747826
523,neiafu,-18.65,-173.9833,23.38,78,75,6.69,TO,1689748653
524,horta,38.5333,-28.6333,20.8,81,40,4.12,PT,1689748653
525,shimoda,34.6667,138.95,31.2,80,100,9.42,JP,1689748654
526,yeed,4.55,43.0333,28.07,47,6,11.02,SO,1689748654
527,port angeles,48.1181,-123.4307,17.34,63,0,6.69,US,1689748655
528,qala i naw,34.9874,63.1289,30.68,27,0,6.15,AF,1689748655
529,tralee,52.2704,-9.7026,14.14,82,75,1.54,IE,1689748655
530,burela de cabo,43.65,-7.4,19.54,81,92,2.21,ES,1689748655
531,dagomys,43.6703,39.6689,24.97,66,0,2.79,RU,1689748655
532,alpena,45.0617,-83.4327,14.5,97,0,0.0,US,1689748655
533,perry,37.2506,-83.1999,22.1,96,100,2.97,US,1689748656
534,usogorsk,63.4106,48.6872,27.78,36,17,2.37,RU,1689748656
535,homer,59.6425,-151.5483,14.94,72,20,3.09,US,1689748656
536,tisul',55.7611,88.3122,26.47,40,0,4.12,RU,1689748656
537,noyemberyan,41.1724,44.9992,22.28,49,0,2.63,AM,1689748656
538,ugoofaaru,5.6667,73.0,28.53,77,100,5.08,MV,1689748656
539,amga,60.8953,131.9608,23.15,44,98,1.77,RU,1689748656
540,cam pha mines,21.0167,107.3,29.15,72,64,3.66,VN,1689748656
541,biltine,14.5333,20.9167,31.25,47,25,6.58,TD,1689748657
542,gutierrez zamora,20.45,-97.0833,25.4,91,42,1.32,MX,1689748657
543,comodoro rivadavia,-45.8667,-67.5,4.92,48,0,2.06,AR,1689748657
544,antsohihy,-14.8796,47.9875,29.76,32,8,6.01,MG,1689748657
545,shepparton,-36.3833,145.4,8.84,71,0,1.05,AU,1689748657
546,lubuklinggau,-3.3,102.8667,31.77,45,85,1.57,ID,1689748657
547,angaur state,6.906,134.13,28.45,80,100,11.68,PW,1689748657
548,chernomorskoye,45.5039,32.6997,24.18,64,1,5.78,UA,1689748658
549,kone,-21.0595,164.8658,19.61,96,100,2.22,NC,1689748658
550,casas grandes,30.3667,-107.95,28.55,29,2,2.97,MX,1689748658
551,jinchang,38.4953,102.1739,31.28,19,100,13.66,CN,1689748658
552,palanpur,24.1667,72.4333,33.15,59,100,3.97,IN,1689748658
553,dongcun,36.7767,121.1597,29.72,57,0,4.81,CN,1689748658
554,stony plain,53.5334,-114.0021,14.73,91,0,1.54,CA,1689748602
555,palikir - national government center,6.9248,158.1611,28.47,74,100,2.06,FM,1689748658
556,villamontes,-21.25,-63.5,11.88,59,100,0.46,BO,1689748658
557,mariehamn,60.0973,19.9348,14.92,88,20,2.57,AX,1689748659
558,macapa,0.0389,-51.0664,25.99,100,75,1.54,BR,1689748659
559,hungund,16.0667,76.05,23.6,84,100,9.66,IN,1689748659
560,dungarpur,23.8333,73.7167,32.06,59,91,0.78,IN,1689748659
561,tamale,9.4008,-0.8393,23.91,90,100,2.64,GH,1689748659
562,am timan,11.0297,20.2827,25.15,80,100,2.88,TD,1689748659
563,loreto,22.2667,-101.9667,16.93,77,1,6.91,MX,1689748120
564,jalalaqsi,3.3766,45.5996,28.6,54,61,9.76,SO,1689748659
565,lupane,-18.9315,27.807,16.3,25,0,1.45,ZW,1689748660
566,ta`u,-14.2336,-169.5144,26.49,80,81,10.09,AS,1689748660
567,floro,61.5996,5.0328,10.04,87,75,4.12,NO,1689748660
568,tbeng meanchey,13.8167,104.9667,29.14,84,100,2.6,KH,1689748660
